{"id":3435910,"name":"Buenos Aires","lat":"-34.61315","lng":"-58.37723","countryCode":"AR","population":13076300,"elevation":null,"timeZone":"31"},
{"id":1185241,"name":"Dhaka","lat":"23.7104","lng":"90.40744","countryCode":"BD","population":10356500,"elevation":null,"timeZone":"23"},
{"id":3448439,"name":"São Paulo","lat":"-23.5475","lng":"-46.63611","countryCode":"BR","population":10021295,"elevation":null,"timeZone":"769"},
{"id":3451190,"name":"Rio de Janeiro","lat":"-22.90278","lng":"-43.2075","countryCode":"BR","population":6023699,"elevation":null,"timeZone":"5"},
{"id":2314302,"name":"Kinshasa","lat":"-4.32758","lng":"15.31357","countryCode":"CD","population":7785965,"elevation":null,"timeZone":"281"},
{"id":1790630,"name":"Xi’an","lat":"34.25833","lng":"108.92861","countryCode":"CN","population":6501190,"elevation":null,"timeZone":"416"},
{"id":1791247,"name":"Wuhan","lat":"30.58333","lng":"114.26667","countryCode":"CN","population":9785388,"elevation":null,"timeZone":"20"},
{"id":1792947,"name":"Tianjin","lat":"39.14222","lng":"117.17667","countryCode":"CN","population":11090314,"elevation":null,"timeZone":"11"},
{"id":1793724,"name":"Tai’an","lat":"36.18528","lng":"117.12","countryCode":"CN","population":5499000,"elevation":null,"timeZone":"143"},
{"id":1795565,"name":"Shenzhen","lat":"22.54554","lng":"114.0683","countryCode":"CN","population":10358381,"elevation":null,"timeZone":"4"},
{"id":1795940,"name":"Shantou","lat":"23.36814","lng":"116.71479","countryCode":"CN","population":5329024,"elevation":null,"timeZone":"17"},
{"id":1796236,"name":"Shanghai","lat":"31.22222","lng":"121.45806","countryCode":"CN","population":22315474,"elevation":null,"timeZone":"12"},
{"id":1799962,"name":"Nanjing","lat":"32.06167","lng":"118.77778","countryCode":"CN","population":7165292,"elevation":null,"timeZone":"22"},
{"id":1800146,"name":"Nanchong","lat":"30.79508","lng":"106.08473","countryCode":"CN","population":7150000,"elevation":null,"timeZone":"287"},
{"id":1808926,"name":"Hangzhou","lat":"30.29365","lng":"120.16142","countryCode":"CN","population":6241971,"elevation":null,"timeZone":"12"},
{"id":1809858,"name":"Guangzhou","lat":"23.11667","lng":"113.25","countryCode":"CN","population":11071424,"elevation":null,"timeZone":"15"},
{"id":1812545,"name":"Dongguan","lat":"23.01797","lng":"113.74866","countryCode":"CN","population":8000000,"elevation":null,"timeZone":"15"},
{"id":1814906,"name":"Chongqing","lat":"29.56278","lng":"106.55278","countryCode":"CN","population":7457600,"elevation":null,"timeZone":"225"},
{"id":1815286,"name":"Chengdu","lat":"30.66667","lng":"104.06667","countryCode":"CN","population":7415590,"elevation":null,"timeZone":"499"},
{"id":1816670,"name":"Beijing","lat":"39.9075","lng":"116.39723","countryCode":"CN","population":11716620,"elevation":null,"timeZone":"49"},
{"id":1886760,"name":"Suzhou","lat":"31.30408","lng":"120.59538","countryCode":"CN","population":5345961,"elevation":null,"timeZone":"10"},
{"id":2034937,"name":"Shenyang","lat":"41.79222","lng":"123.43278","countryCode":"CN","population":6255921,"elevation":null,"timeZone":"53"},
{"id":2037013,"name":"Harbin","lat":"45.75","lng":"126.65","countryCode":"CN","population":5878939,"elevation":null,"timeZone":"140"},
{"id":3688689,"name":"Bogotá","lat":"4.60971","lng":"-74.08175","countryCode":"CO","population":7674366,"elevation":null,"timeZone":"2582"},
{"id":360630,"name":"Cairo","lat":"30.06263","lng":"31.24967","countryCode":"EG","population":7734614,"elevation":null,"timeZone":"23"},
{"id":2643741,"name":"City of London","lat":"51.51279","lng":"-0.09184","countryCode":"GB","population":7556900,"elevation":null,"timeZone":"27"},
{"id":2643743,"name":"London","lat":"51.50853","lng":"-0.12574","countryCode":"GB","population":7556900,"elevation":null,"timeZone":"25"},
{"id":1819729,"name":"Hong Kong","lat":"22.27832","lng":"114.17469","countryCode":"HK","population":7012738,"elevation":null,"timeZone":"-9999"},
{"id":1642911,"name":"Jakarta","lat":"-6.21462","lng":"106.84513","countryCode":"ID","population":8540121,"elevation":null,"timeZone":"16"},
{"id":1273294,"name":"Delhi","lat":"28.65195","lng":"77.23149","countryCode":"IN","population":10927986,"elevation":null,"timeZone":"227"},
{"id":1275339,"name":"Mumbai","lat":"19.07283","lng":"72.88261","countryCode":"IN","population":12691836,"elevation":null,"timeZone":"8"},
{"id":1277333,"name":"Bengaluru","lat":"12.97194","lng":"77.59369","countryCode":"IN","population":5104047,"elevation":920,"timeZone":"914"},
{"id":98182,"name":"Baghdad","lat":"33.34058","lng":"44.40088","countryCode":"IQ","population":7216000,"elevation":null,"timeZone":"41"},
{"id":112931,"name":"Tehran","lat":"35.69439","lng":"51.42151","countryCode":"IR","population":7153309,"elevation":null,"timeZone":"1178"},
{"id":1850147,"name":"Tokyo","lat":"35.6895","lng":"139.69171","countryCode":"JP","population":8336599,"elevation":null,"timeZone":"44"},
{"id":1835848,"name":"Seoul","lat":"37.566","lng":"126.9784","countryCode":"KR","population":10349312,"elevation":null,"timeZone":"38"},
{"id":3530597,"name":"Mexico City","lat":"19.42847","lng":"-99.12766","countryCode":"MX","population":12294193,"elevation":null,"timeZone":"2240"},
{"id":2332459,"name":"Lagos","lat":"6.45407","lng":"3.39467","countryCode":"NG","population":9000000,"elevation":null,"timeZone":"11"},
{"id":3936456,"name":"Lima","lat":"-12.04318","lng":"-77.02824","countryCode":"PE","population":7737002,"elevation":null,"timeZone":"152"},
{"id":1172451,"name":"Lahore","lat":"31.558","lng":"74.35071","countryCode":"PK","population":6310888,"elevation":null,"timeZone":"211"},
{"id":1174872,"name":"Karachi","lat":"24.8608","lng":"67.0104","countryCode":"PK","population":11624219,"elevation":null,"timeZone":"12"},
{"id":498817,"name":"Saint Petersburg","lat":"59.93863","lng":"30.31413","countryCode":"RU","population":5028000,"elevation":null,"timeZone":"11"},
{"id":524901,"name":"Moscow","lat":"55.75222","lng":"37.61556","countryCode":"RU","population":10381222,"elevation":null,"timeZone":"144"},
{"id":1609350,"name":"Bangkok","lat":"13.75398","lng":"100.50144","countryCode":"TH","population":5104476,"elevation":null,"timeZone":"12"},
{"id":745044,"name":"İstanbul","lat":"41.01384","lng":"28.94966","countryCode":"TR","population":11174257,"elevation":null,"timeZone":"39"},
{"id":1668341,"name":"Taipei","lat":"25.04776","lng":"121.53185","countryCode":"TW","population":7871900,"elevation":null,"timeZone":"10"},
{"id":5128581,"name":"New York City","lat":"40.71427","lng":"-74.00597","countryCode":"US","population":8175133,"elevation":10,"timeZone":"57"},
